City_ID,City,Lat,Lng,Max Temp,Humidity,Cloudiness,Wind Speed,Country,Date
0,albany,42.6001,-73.9662,18.58,78,1,1.6,US,1723084218
1,notodden,59.5594,9.2585,12.78,84,99,1.94,NO,1723084219
2,yellowknife,62.456,-114.3525,21.9,46,20,5.14,CA,1723084220
3,kapuskasing,49.4169,-82.4331,18.05,72,100,1.54,CA,1723083761
4,kibiti,-7.7218,38.9375,18.32,97,95,1.25,TZ,1723084222
5,ushuaia,-54.8,-68.3,0.81,80,40,1.03,AR,1723084142
6,tsiombe,-25.3,45.4833,18.59,92,4,3.64,MG,1723084224
7,port-aux-francais,-49.35,70.2167,0.59,96,100,11.08,TF,1723084225
8,wailua homesteads,22.0669,-159.378,28.44,70,20,6.69,US,1723084227
9,badger,64.8,-147.5333,25.14,51,94,1.67,US,1723084228
10,nova vicosa,-17.8919,-39.3719,21.45,73,1,3.15,BR,1723084229
11,grytviken,-54.2811,-36.5092,-10.01,74,21,4.68,GS,1723084230
12,puerto ayora,-0.7393,-90.3518,19.19,97,86,3.58,EC,1723084231
13,bethel,41.3712,-73.414,18.64,89,100,1.04,US,1723084232
14,edinburgh of the seven seas,-37.0676,-12.3116,9.19,53,100,10.87,SH,1723084233
15,ribeira grande,38.5167,-28.7,23.21,80,0,2.68,PT,1723084234
16,chonchi,-42.6128,-73.8092,4.56,97,22,0.51,CL,1723084235
17,bilibino,68.0546,166.4372,14.67,37,16,4.8,RU,1723084237
18,meulaboh,4.1363,96.1285,25.35,88,98,2.95,ID,1723083721
19,saint-philippe,-21.3585,55.7679,18.77,82,16,2.36,RE,1723083884
20,sitka,57.0531,-135.33,16.94,82,20,1.54,US,1723084174
21,tazovsky,67.4667,78.7,8.55,76,46,5.47,RU,1723083826
22,nemuro,43.3236,145.575,17.38,100,100,2.32,JP,1723084242
23,rio gallegos,-51.6226,-69.2181,1.03,64,0,2.57,AR,1723084084
24,cestos city,5.46,-9.5828,24.01,81,100,4.52,LR,1723083701
25,lospalos,-8.5186,127.0025,25.93,65,94,6.3,TL,1723084245
26,bredasdorp,-34.5322,20.0403,8.15,95,0,2.05,ZA,1723084246
27,longyearbyen,78.2186,15.6401,10.91,93,75,0.0,SJ,1723084197
28,suzun,53.7841,82.3116,20.48,83,92,2.09,RU,1723084249
29,lompoc,34.6391,-120.4579,23.72,73,0,5.66,US,1723084250
30,adamstown,-25.066,-130.1015,19.47,65,94,1.75,PN,1723084251
31,holualoa,19.6228,-155.9522,25.31,79,26,0.45,US,1723084252
32,anadyr,64.75,177.4833,10.28,71,40,5.0,RU,1723084253
33,essaouira,31.5125,-9.77,20.72,94,4,3.09,MA,1723084254
34,vangaindrano,-23.35,47.6,19.97,87,92,1.24,MG,1723084255
35,puerto natales,-51.7236,-72.4875,0.25,80,75,1.03,CL,1723084256
36,belmonte,-15.8631,-38.8828,22.1,70,42,1.75,BR,1723084258
37,olonkinbyen,70.9221,-8.7187,5.38,100,100,3.94,SJ,1723084259
38,choibalsan,48.0667,114.5,24.42,50,100,2.43,MN,1723084260
39,xiaoweizhai,26.1903,107.5125,27.56,73,50,5.38,CN,1723084261
40,tabou,4.423,-7.3528,23.41,79,100,3.75,CI,1723084262
41,kabardinka,44.6514,37.9428,19.91,74,0,0.76,RU,1723084263
42,nadym,65.5333,72.5167,10.78,68,96,5.52,RU,1723084264
43,quang ngai,15.1167,108.8,35.67,45,12,0.63,VN,1723084265
44,jamestown,42.097,-79.2353,19.8,88,100,3.6,US,1723084267
45,mil'kovo,55.6078,37.7956,18.13,73,100,1.69,RU,1723084268
46,port elizabeth,-33.918,25.5701,14.16,95,20,5.14,ZA,1723084269
47,afaahiti,-17.75,-149.2833,26.93,82,6,7.77,PF,1723084270
48,al jawf,29.5,38.75,23.87,40,1,3.2,SA,1723084271
49,monguno,12.6786,13.6079,24.51,85,100,5.06,NG,1723084272
50,nguigmi,14.2495,13.1092,27.21,70,100,4.79,NE,1723084273
51,bonny,4.4522,7.1681,24.82,84,100,4.47,NG,1723084274
52,san antonio,29.4241,-98.4936,34.41,50,20,5.66,US,1723083873
53,invercargill,-46.4,168.35,8.9,83,59,3.58,NZ,1723084277
54,waitangi,-43.9535,-176.5597,12.12,73,32,3.13,NZ,1723084278
55,blackmans bay,-43.0167,147.3167,13.18,65,100,1.34,AU,1723084279
56,ilulissat,69.2167,-51.1,4.01,100,100,0.0,GL,1723084280
57,qaqortoq,60.7167,-46.0333,7.08,93,100,2.29,GL,1723084281
58,linhares,-19.3911,-40.0722,18.92,87,0,1.76,BR,1723084282
59,avarua,-21.2078,-159.775,24.03,60,20,4.63,CK,1723084285
60,port macquarie,-31.4333,152.9167,19.48,58,2,2.68,AU,1723084286
61,midvagur,62.0511,-7.1939,9.46,100,40,1.54,FO,1723084288
62,thompson,55.7435,-97.8558,15.09,63,75,2.57,CA,1723084289
63,utrik,11.2278,169.8474,28.14,78,20,5.93,MH,1723084290
64,papatowai,-46.5619,169.4708,8.71,76,61,4.26,NZ,1723084291
65,moses lake,47.1301,-119.2781,34.38,20,0,3.09,US,1723084285
66,porto novo,6.4965,2.6036,24.9,85,100,3.34,BJ,1723084293
67,san antonio de pale,-1.4014,5.6325,22.65,82,100,5.61,GQ,1723084294
68,manggar,-2.8833,108.2667,29.11,73,55,6.86,ID,1723084296
69,georgetown,5.4112,100.3354,29.96,68,20,3.09,MY,1723084244
70,crane,31.3974,-102.3501,34.76,19,0,2.24,US,1723084299
71,katsuura,35.1333,140.3,28.36,79,19,3.82,JP,1723084300
72,klyuchi,52.2667,79.1667,22.88,67,99,2.9,RU,1723084301
73,mariehamn,60.0973,19.9348,18.79,100,31,0.0,AX,1723084302
74,port moresby,-9.4431,147.1797,29.68,66,75,5.14,PG,1723084303
75,flying fish cove,-10.4217,105.6791,26.82,78,40,6.69,CX,1723084304
76,kudahuvadhoo,2.6708,72.8944,26.77,81,100,7.28,MV,1723084306
77,salinopolis,-0.6136,-47.3561,26.26,83,65,4.55,BR,1723084307
78,coahuayana de hidalgo,18.7,-103.6583,26.63,85,99,0.93,MX,1723084308
79,lihue,21.9789,-159.3672,28.77,64,20,6.69,US,1723084309
80,nizhniy kuranakh,58.8353,125.4869,21.81,54,0,2.45,RU,1723084310
81,maintirano,-18.0667,44.0167,20.68,86,1,2.58,MG,1723084311
82,aladag,37.5485,35.396,22.98,63,0,1.29,TR,1723084312
83,iqaluit,63.7506,-68.5145,7.85,76,20,1.54,CA,1723084313
84,port mathurin,-19.6833,63.4167,22.3,74,17,5.55,MU,1723084314
85,wongsorejo,-7.9908,114.4009,29.32,64,59,3.98,ID,1723084317
86,upper dir,35.2058,71.8756,23.43,82,67,1.64,PK,1723084318
87,margaret river,-33.95,115.0667,15.16,65,100,6.08,AU,1723084319
88,kotido,2.9806,34.1331,20.4,71,56,2.83,UG,1723084320
89,haiku-pauwela,20.9219,-156.3051,28.45,71,20,11.83,US,1723084321
90,enewetak,11.3474,162.3373,28.8,75,87,4.82,MH,1723084322
91,taulaga,-11.0553,-171.0883,27.42,74,81,9.07,AS,1723084323
92,grand falls-windsor,48.9332,-55.6649,13.61,78,1,3.23,CA,1723084169
93,broken hill,-31.95,141.4333,15.95,42,100,8.23,AU,1723084326
94,la passe,45.5549,-0.8967,17.13,84,84,3.24,FR,1723084327
95,port alfred,-33.5906,26.891,14.95,70,0,4.17,ZA,1723084328
96,kailua-kona,19.6406,-155.9956,27.38,79,25,1.34,US,1723084329
97,tindouf,27.6711,-8.1474,33.25,17,0,6.69,DZ,1723083918
98,jatai,-17.8814,-51.7144,20.06,42,0,2.03,BR,1723084331
99,moapa valley,36.5805,-114.4703,39.74,20,68,7.6,US,1723084332
100,gadzhiyevo,69.2551,33.3362,13.4,62,62,3.85,RU,1723084334
101,fort bragg,35.139,-79.006,24.91,94,20,7.72,US,1723084336
102,iskateley,67.6803,53.1512,9.63,69,0,2.3,RU,1723084337
103,zhicheng,30.2956,111.5047,35.4,48,100,2.29,CN,1723084338
104,tolanaro,-25.0319,46.9987,20.04,94,75,5.14,MG,1723084339
105,kikvidze,50.7416,43.0518,20.88,64,60,1.65,RU,1723084340
106,atafu village,-8.5421,-172.5159,28.29,69,2,8.93,TK,1723084341
107,tshabong,-26.05,22.45,13.64,23,0,3.91,BW,1723084342
108,kakonko,-3.2828,30.9642,17.76,42,75,0.94,TZ,1723084343
109,kindberg,47.5,15.45,16.05,96,100,0.74,AT,1723084345
110,papao,-17.75,-149.55,27.82,78,0,7.62,PF,1723084346
111,arraial do cabo,-22.9661,-42.0278,22.27,84,0,10.75,BR,1723084347
112,guiratinga,-16.3494,-53.7583,20.7,43,13,1.07,BR,1723084348
113,vuktyl,63.8567,57.3094,11.53,68,3,1.22,RU,1723083777
114,chibougamau,49.9168,-74.3659,12.79,88,40,0.0,CA,1723084081
115,tiksi,71.6872,128.8694,6.65,92,100,1.41,RU,1723084351
116,punta arenas,-53.15,-70.9167,2.06,80,100,4.63,CL,1723084111
117,luza,60.6308,47.2512,12.62,92,96,2.16,RU,1723084353
118,kapa'a,22.0752,-159.319,29.18,68,20,6.69,US,1723084181
119,san luis de la loma,17.2706,-100.8939,27.55,84,100,4.0,MX,1723084356
120,stanley,54.868,-1.6985,13.49,84,0,3.6,GB,1723084357
121,igarka,67.4667,86.5833,12.64,60,1,4.69,RU,1723083896
122,touros,-5.1989,-35.4608,23.2,85,9,4.75,BR,1723084360
123,sao joao da barra,-21.6403,-41.0511,22.08,84,0,7.71,BR,1723084361
124,cova figueira,14.8905,-24.2934,19.29,87,58,5.69,CV,1723084362
125,kyaikkami,16.08,97.5675,27.24,79,99,1.99,MM,1723084363
126,priozersk,61.0393,30.1291,16.72,100,99,1.66,RU,1723084262
127,el granada,37.5027,-122.4694,23.03,83,100,10.29,US,1723084366
128,el salto,20.3333,-104.5,18.49,94,81,1.42,MX,1723084367
129,imperatriz,-5.5264,-47.4917,23.18,42,3,1.21,BR,1723084368
130,malinyi,-8.9333,36.1333,16.08,58,100,0.99,TZ,1723084369
131,hamilton,39.1834,-84.5333,24.84,78,0,3.6,US,1723083849
132,viedma,-40.8135,-62.9967,5.35,65,83,5.26,AR,1723084371
133,kalmunai,7.4167,81.8167,29.08,71,60,1.06,LK,1723084372
134,brookings,44.3114,-96.7984,20.03,94,100,4.46,US,1723084114
135,mizque,-17.941,-65.3402,13.16,88,0,1.52,BO,1723084375
136,new norfolk,-42.7826,147.0587,13.84,58,100,3.73,AU,1723084364
137,codrington,-38.2667,141.9667,13.53,63,100,9.11,AU,1723084377
138,arpajon-sur-cere,44.9026,2.4581,15.62,95,0,1.54,FR,1723084378
139,talnakh,69.4865,88.3972,16.02,52,3,3.13,RU,1723084374
140,alotau,-10.3069,150.4462,27.87,70,79,3.08,PG,1723084380
141,klaksvik,62.2266,-6.589,9.51,91,95,3.12,FO,1723084381
142,novoorsk,51.381,58.9813,18.36,81,54,3.08,RU,1723084382
143,carnarvon,-24.8667,113.6333,20.52,56,4,3.96,AU,1723084383
144,lebu,-37.6167,-73.65,6.04,90,8,3.07,CL,1723084271
145,daru,-9.0763,143.2092,25.36,84,100,6.13,PG,1723084386
146,portland,45.5234,-122.6762,30.32,48,75,5.14,US,1723084196
147,hawaiian paradise park,19.5933,-154.9731,27.73,73,100,5.14,US,1723084388
148,baharly,38.4362,57.4316,31.32,42,52,1.21,TM,1723084389
149,luebo,-5.35,21.4167,21.08,28,93,0.41,CD,1723084390
150,stevenage,51.9022,-0.2026,14.56,90,7,2.06,GB,1723084391
151,serra,-20.1286,-40.3078,22.7,78,0,3.09,BR,1723084392
152,ishigaki,24.3448,124.1572,28.07,89,75,4.63,JP,1723084393
153,teluknaga,-6.0989,106.6381,30.91,64,20,2.06,ID,1723084394
154,nuuk,64.1835,-51.7216,4.34,100,100,2.57,GL,1723084396
155,wasserburg am inn,48.0605,12.2313,17.23,93,50,2.24,DE,1723084397
156,petropavlovsk-kamchatsky,53.0452,158.6483,26.33,47,75,6.0,RU,1723084398
157,port saint john's,-31.6229,29.5448,17.82,32,0,3.09,ZA,1723084399
158,hotan,37.0997,79.9269,29.29,18,32,2.44,CN,1723084400
159,westport,41.1415,-73.3579,19.36,86,100,3.6,US,1723083593
160,khombole,14.7667,-16.7,27.45,82,100,3.46,SN,1723084402
161,floro,61.5996,5.0328,15.04,88,100,6.17,NO,1723084403
162,ronne,55.1009,14.7066,18.95,94,75,2.06,DK,1723084404
163,taoudenni,22.6783,-3.9836,37.76,9,0,8.7,ML,1723084401
164,remire-montjoly,4.9167,-52.2667,27.02,89,20,1.03,GF,1723084178
165,abepura,-2.6333,140.5833,28.45,74,20,4.12,ID,1723084408
166,fort-shevchenko,44.5086,50.263,25.04,66,100,5.4,KZ,1723084409
167,atherton,53.5237,-2.4935,15.79,92,100,3.34,GB,1723084410
168,moranbah,-22.0016,148.0466,24.52,43,13,6.53,AU,1723084411
169,whitehorse,60.7161,-135.0538,27.79,30,0,5.66,CA,1723084412
170,immenstadt im allgau,47.56,10.2139,15.99,83,25,1.71,DE,1723084413
171,rocha,-34.4833,-54.3333,7.58,85,4,3.65,UY,1723084384
172,luena,-11.7833,19.9167,13.01,27,24,2.02,AO,1723084415
173,san pedro pochutla,15.7333,-96.4667,28.84,85,100,2.12,MX,1723084417
174,alice springs,-23.7,133.8833,23.75,27,0,1.54,AU,1723084418
175,shira,54.4911,89.9531,15.73,94,100,2.23,RU,1723084419
176,mount gambier,-37.8333,140.7667,10.99,75,100,4.93,AU,1723084375
177,jabor,5.921,169.6434,27.21,78,100,2.27,MH,1723084421
178,cookstown,54.6431,-6.746,12.99,95,75,1.95,GB,1723084422
179,uturoa,-16.7333,-151.4333,25.95,83,36,4.68,PF,1723084364
180,bonthe,7.5264,-12.505,24.7,83,100,4.8,SL,1723084424
181,kuta,-8.7233,115.1723,27.97,78,40,7.2,ID,1723084425
182,fort st. john,56.2499,-120.8529,22.94,43,20,4.12,CA,1723084394
183,leh,34.1667,77.5833,14.97,49,60,2.27,IN,1723084359
184,novyy urgal,51.0736,132.5642,28.87,42,8,0.5,RU,1723084429
185,black river,18.0264,-77.8487,27.35,83,100,1.1,JM,1723084430
186,kargasok,59.0556,80.8572,13.84,72,97,1.92,RU,1723084333
187,siniscola,40.5719,9.6922,24.75,69,0,1.46,IT,1723084432
188,hannibal,39.7084,-91.3585,22.53,88,0,0.0,US,1723084433
189,akureyri,65.6835,-18.0878,7.96,93,100,1.54,IS,1723084434
190,inarajan village,13.2736,144.7484,32.08,83,100,2.36,GU,1723084435
191,colonia,50.9333,6.95,18.23,86,0,2.06,DE,1723084436
192,vorkuta,67.5,64.0,11.19,60,32,1.58,RU,1723084413
193,college,64.8569,-147.8028,25.18,54,98,1.51,US,1723084439
194,istgah-e rah ahan-e garmsar,35.2346,52.3094,34.89,13,5,5.0,IR,1723084440
195,katsuren-haebaru,26.3369,127.8719,33.01,76,75,4.63,JP,1723084441
196,olinda,-8.0089,-34.8553,25.85,65,20,3.6,BR,1723084362
197,nar'yan-mar,67.6713,53.087,9.66,69,0,2.31,RU,1723084406
198,kourou,5.1552,-52.6478,26.03,92,42,3.08,GF,1723084386
199,maturin,9.75,-63.1767,25.91,100,28,2.06,VE,1723084447
200,onguday,50.75,86.15,20.22,59,100,1.4,RU,1723084448
201,kattivakkam,13.2167,80.3167,27.05,96,100,5.43,IN,1723084449
202,enoch,37.7733,-113.0244,23.6,53,100,8.23,US,1723084450
203,sungai penuh,-2.0833,101.3833,25.19,53,96,0.87,ID,1723084451
204,mount isa,-20.7333,139.5,25.87,25,0,3.6,AU,1723083984
205,courtenay,49.6866,-124.9936,26.68,50,75,1.54,CA,1723084453
206,ardakan,32.31,54.0175,34.3,12,14,1.47,IR,1723084454
207,kilindoni,-7.9139,39.6668,24.87,70,88,6.27,TZ,1723084455
208,severo-yeniseyskiy,60.3725,93.0408,16.2,81,100,1.55,RU,1723084457
209,necochea,-38.5473,-58.7368,6.38,94,100,11.64,AR,1723084458
210,geraldton,-28.7667,114.6,17.23,88,100,3.09,AU,1723084459
211,amarpatan,24.3167,80.9833,26.59,82,100,0.41,IN,1723084460
212,soligalich,59.0778,42.2864,12.69,96,95,1.51,RU,1723084461
213,east london,-33.0153,27.9116,18.13,37,0,2.27,ZA,1723084229
214,san jose del guaviare,2.5729,-72.6459,23.51,88,2,0.72,CO,1723084463
215,kidal,18.4411,1.4078,29.29,59,94,6.84,ML,1723084389
216,luanco,43.6152,-5.7934,21.22,84,100,3.58,ES,1723084465
217,taltal,-25.4,-70.4833,14.66,60,0,2.3,CL,1723084262
218,kingscliff,-28.2667,153.5667,19.97,63,100,5.14,AU,1723084470
219,thomasville,35.8826,-80.082,25.04,90,100,2.24,US,1723084471
220,fuglafjordur,62.244,-6.814,9.26,92,86,2.84,FO,1723084472
221,i-n-salah,27.1935,2.4607,32.55,13,0,7.24,DZ,1723084473
222,rumbek,6.802,29.6912,21.9,97,100,1.9,SS,1723084474
223,itoman,26.1247,127.6694,33.01,71,40,4.63,JP,1723084475
224,richards bay,-28.783,32.0377,16.58,83,36,4.9,ZA,1723084478
225,ziro,27.6333,93.8333,13.41,89,96,0.73,IN,1723084479
226,penaranda de bracamonte,40.9011,-5.2003,19.95,26,0,1.37,ES,1723084480
227,dalandzadgad,43.5708,104.425,27.08,34,100,6.48,MN,1723084393
228,raton,36.9034,-104.4391,22.34,46,0,6.17,US,1723084482
229,ancud,-41.8697,-73.8203,4.4,89,4,1.78,CL,1723084483
230,center,31.5107,-96.4247,31.0,58,0,3.47,US,1723083964
231,vilyuchinsk,52.9306,158.4028,27.15,78,28,5.25,RU,1723084485
232,lusambo,-4.9667,23.45,18.79,32,46,0.84,CD,1723084488
233,coracora,-15.0333,-73.7833,7.46,39,0,2.17,PE,1723084489
234,villamontes,-21.25,-63.5,14.87,60,100,1.42,BO,1723084490
235,hobyo,5.3505,48.5268,23.85,85,96,8.39,SO,1723084491
236,hailar,49.2,119.7,22.35,50,100,2.47,CN,1723084492
237,kutum,14.2,24.6667,20.87,87,100,4.5,SD,1723084493
238,nova sintra,14.8667,-24.7167,24.98,84,42,8.2,CV,1723084494
239,aykhal,66.0,111.5,21.95,50,100,9.25,RU,1723084376
240,aasiaat,68.7098,-52.8699,3.59,94,99,3.42,GL,1723084496
241,bodaybo,57.8506,114.1933,26.79,47,26,0.43,RU,1723084498
242,fisterra,42.9049,-9.2629,18.9,82,10,8.75,ES,1723084499
243,boa vista,2.8197,-60.6733,25.99,83,40,3.6,BR,1723084321
244,ecoporanga,-18.3733,-40.8306,17.54,87,0,0.91,BR,1723084501
245,st. john's,47.5649,-52.7093,17.1,91,0,8.23,CA,1723084502
246,luderitz,-26.6481,15.1594,9.92,83,0,2.68,NA,1723084504
247,idri,27.5,13.2667,29.19,16,2,4.31,LY,1723084505
248,broome,42.2506,-75.833,19.0,87,100,3.09,US,1723084507
249,vadso,70.0744,29.7487,12.49,71,0,2.06,NO,1723084369
250,puerto baquerizo moreno,-0.9,-89.6,19.72,79,91,6.0,EC,1723084509
251,saskatoon,52.1168,-106.6345,14.99,51,20,3.6,CA,1723084339
252,bogandinskiy,56.8937,65.8938,12.15,67,86,3.45,RU,1723084511
253,tostado,-29.232,-61.7692,7.77,55,65,3.33,AR,1723084512
254,saint-francois,46.4154,3.9054,16.69,95,100,1.03,FR,1723084513
255,kirensk,57.7853,108.1119,22.73,54,65,4.67,RU,1723084514
256,nueva loja,0.0847,-76.8828,23.86,79,39,0.69,EC,1723084515
257,melfort,52.8667,-104.6177,13.07,67,2,1.54,CA,1723084517
258,quellon,-43.1167,-73.6167,5.27,88,67,1.63,CL,1723084265
259,rockport,28.0206,-97.0544,31.03,78,0,6.17,US,1723084519
260,zouerate,22.7187,-12.4521,31.48,20,0,3.36,MR,1723084520
261,kruisfontein,-34.0033,24.7314,8.82,85,0,2.69,ZA,1723084521
262,selfoss,63.9331,-20.9971,9.47,94,1,1.36,IS,1723083953
263,verdal,63.7933,11.4817,19.02,85,58,2.75,NO,1723083992
264,nizhnesortymskiy,62.4397,71.7603,11.45,66,99,5.35,RU,1723084526
265,nokha,27.6,73.4167,27.79,72,65,7.0,IN,1723084527
266,cannonvale,-20.2833,148.7,24.77,72,44,7.32,AU,1723084528
267,toliara,-23.35,43.6667,19.49,69,0,1.7,MG,1723084529
268,mauganj,24.6833,81.8833,25.87,81,100,1.02,IN,1723084530
269,newman,37.3138,-121.0208,36.99,36,0,1.34,US,1723084531
270,yaren,-0.5472,166.916,28.55,73,59,3.82,NR,1723083988
271,wakkanai,45.4094,141.6739,21.99,94,75,2.06,JP,1723084533
272,coari,-4.085,-63.1414,26.82,49,35,0.17,BR,1723084534
273,belyy yar,53.6039,91.3903,17.94,94,40,2.0,RU,1723084536
274,villa gesell,-37.2639,-56.973,8.92,93,100,6.46,AR,1723083804
275,dudinka,69.4058,86.1778,13.84,49,10,9.78,RU,1723084538
276,sisimiut,66.9395,-53.6735,5.45,89,26,6.24,GL,1723084390
277,betio village,1.358,172.9211,31.02,61,4,1.34,KI,1723084540
278,biloela,-24.4167,150.5,23.27,43,47,4.08,AU,1723084541
279,ribeira brava,32.65,-17.0667,23.35,71,26,0.86,PT,1723084542
280,tura,25.5198,90.2201,27.55,81,68,2.96,IN,1723084543
281,labrador city,52.9463,-66.9114,8.99,85,75,4.92,CA,1723084545
282,hadibu,12.65,54.0333,25.6,86,63,8.55,YE,1723083739
283,altai,46.3722,96.2583,17.63,34,100,2.59,MN,1723084547
284,gore,-46.1028,168.9436,9.07,78,5,3.27,NZ,1723084548
285,callao,-12.0667,-77.15,16.51,77,100,3.09,PE,1723084549
286,hermanus,-34.4187,19.2345,11.29,86,0,3.14,ZA,1723084550
287,qeshm,26.9581,56.2719,31.93,80,67,7.73,IR,1723084551
288,vernon,50.2581,-119.2691,29.96,22,17,0.45,CA,1723084384
289,jiaojiang,28.6803,121.4428,33.25,57,30,2.8,CN,1723084553
290,tanout,14.9709,8.8879,25.41,71,100,6.43,NE,1723084555
291,ciudad bolivar,8.1222,-63.5497,25.72,85,98,2.8,VE,1723084556
292,hasaki,35.7333,140.8333,32.38,75,38,3.38,JP,1723084557
293,la ronge,55.1001,-105.2842,15.12,58,75,0.51,CA,1723084558
294,jan kempdorp,-27.9225,24.8305,10.8,52,3,5.15,ZA,1723084559
295,ust-nera,64.5667,143.2,13.94,77,98,0.71,RU,1723084560
296,maumere,-8.6199,122.2111,28.05,61,100,1.32,ID,1723084561
297,launceston,-41.45,147.1667,13.22,71,100,7.72,AU,1723084562
298,malango,-2.9627,119.9001,26.75,58,34,2.18,ID,1723084564
299,kone,-21.0595,164.8658,24.6,53,92,4.05,NC,1723084055
300,hithadhoo,-0.6,73.0833,27.92,73,100,3.06,MV,1723084566
301,grootfontein,-19.5667,18.1167,12.76,28,0,2.06,NA,1723084567
302,arauco,-37.2463,-73.3175,5.22,90,7,1.77,CL,1723084568
303,isafjordur,66.0755,-23.124,6.75,87,100,0.94,IS,1723084569
304,yarkovo,57.4028,67.0786,13.98,62,89,3.32,RU,1723084570
305,ponta delgada,37.7333,-25.6667,23.4,88,75,2.57,PT,1723084572
306,sao joaquim,-28.2939,-49.9317,11.39,97,100,3.01,BR,1723084286
307,glace bay,46.1969,-59.957,16.59,88,40,3.09,CA,1723084531
308,slutsk,53.0274,27.5597,13.19,95,0,2.31,BY,1723084575
309,calama,-22.4667,-68.9333,4.27,14,0,1.03,CL,1723084340
310,adrian,41.8975,-84.0372,19.4,80,1,3.86,US,1723084577
311,marsh harbour,26.5412,-77.0636,28.22,78,25,5.73,BS,1723084377
312,susanville,40.4163,-120.653,30.46,21,33,0.45,US,1723084579
313,ilomantsi,62.6716,30.9328,9.83,84,25,1.82,FI,1723084580
314,todos santos,23.45,-110.2167,30.17,80,16,1.71,MX,1723084582
315,vilhena,-12.7406,-60.1458,21.58,42,31,1.52,BR,1723084583
316,natal,-5.795,-35.2094,22.36,88,20,2.06,BR,1723084350
317,sao felix do xingu,-6.6447,-51.995,22.3,40,1,0.65,BR,1723084585
318,el haouaria,37.05,11.0144,25.01,82,0,0.81,TN,1723084586
319,guatrache,-37.6678,-63.5302,4.03,87,100,9.09,AR,1723084587
320,constantia,44.1833,28.65,17.61,75,0,1.42,RO,1723084588
321,bereznik,62.8551,42.7072,14.47,72,72,1.42,RU,1723084589
322,lorengau,-2.0226,147.2712,29.72,70,26,3.93,PG,1723084591
323,ziebice,50.6012,17.0406,21.41,84,100,2.66,PL,1723084592
324,shiguai,40.7058,110.2856,25.53,51,76,7.06,CN,1723084593
325,lucapa,-8.4192,20.7447,18.16,23,100,2.05,AO,1723084594
326,alapli,41.1694,31.3792,18.59,85,0,2.26,TR,1723084595
327,saint-pierre,-21.3393,55.4781,18.82,63,0,3.09,RE,1723084596
328,moron,-34.6534,-58.6198,9.86,76,11,10.73,AR,1723084597
329,winnemucca,40.973,-117.7357,35.03,8,0,4.12,US,1723084598
330,nueva gerona,21.8833,-82.8,27.91,75,97,2.5,CU,1723084599
331,saipan,15.1355,145.701,32.39,70,40,3.6,MP,1723084601
332,bubaque,11.2833,-15.8333,26.24,83,100,7.48,GW,1723084602
333,kodiak,57.79,-152.4072,15.73,77,40,2.06,US,1723084343
334,ouadda,8.0777,22.4007,20.17,93,100,0.89,CF,1723084604
335,gunupur,19.0833,83.8167,27.79,78,100,1.9,IN,1723084605
336,karratha,-20.7377,116.8463,26.61,25,15,4.43,AU,1723084364
337,saldanha,-33.0117,17.9442,12.03,87,100,4.77,ZA,1723084607
338,ola,59.5833,151.2833,14.16,79,46,3.28,RU,1723084374
339,glendive,47.1053,-104.7125,16.79,72,100,4.12,US,1723084609
340,phan rang-thap cham,11.5667,108.9833,33.56,51,18,2.31,VN,1723084611
341,puerto el triunfo,13.2833,-88.55,27.5,80,100,0.28,SV,1723084612
342,dryden,49.7833,-92.7503,18.16,77,40,4.63,CA,1723084613
343,nandigama,16.7833,80.3,26.1,87,100,4.62,IN,1723084615
344,akrehamn,59.2667,5.1833,16.34,82,75,7.2,NO,1723084616
345,kuala terengganu,5.3302,103.1408,28.97,79,20,2.06,MY,1723084501
346,baiyin,36.5583,104.2081,22.0,73,100,2.2,CN,1723084619
347,puerto ayacucho,5.6639,-67.6236,23.88,94,97,1.76,VE,1723084621
348,bafq,31.6128,55.4107,33.0,10,0,0.53,IR,1723084622
349,arenapolis,-14.4503,-56.8461,22.32,44,3,2.11,BR,1723084623
350,kijang,35.2442,129.2139,32.85,61,62,4.6,KR,1723084624
351,chui,-33.6971,-53.4616,10.01,75,90,3.71,UY,1723084625
352,fortuna,40.5982,-124.1573,15.52,90,0,4.12,US,1723084626
353,longboat key,27.4125,-82.659,30.57,67,40,4.63,US,1723084628
354,pangody,65.85,74.4859,9.66,71,100,4.79,RU,1723084629
355,cambria,35.5641,-121.0808,24.32,84,31,0.76,US,1723084630
356,manokwari,-0.8667,134.0833,28.94,67,43,2.92,ID,1723084631
357,vila franca do campo,37.7167,-25.4333,23.23,88,42,2.93,PT,1723084632
358,gunnedah,-30.9833,150.25,17.44,59,0,1.81,AU,1723084633
359,cham,49.245,12.6825,18.13,95,0,1.42,DE,1723084634
360,almeirim,-1.5233,-52.5817,24.34,72,18,1.25,BR,1723084635
361,strezhevoy,60.7333,77.5889,13.58,60,84,3.93,RU,1723084636
362,saucillo,28.0167,-105.2833,28.69,37,100,1.12,MX,1723084638
363,amga,60.8953,131.9608,20.45,42,1,1.61,RU,1723084639
364,santiago de cao,-7.9589,-79.2392,16.07,94,100,4.63,PE,1723084640
365,olovyannaya,50.95,115.5667,22.07,47,96,0.85,RU,1723084641
366,dese,11.1333,39.6333,12.85,87,89,1.84,ET,1723084642
367,chernyshevskiy,63.0128,112.4714,22.45,46,32,3.46,RU,1723084643
368,huadian,42.9633,126.7478,27.08,77,99,3.26,CN,1723084644
369,oak hill,37.9723,-81.1487,23.77,94,0,2.53,US,1723084646
370,nasugbu,14.1,120.6833,29.38,74,23,6.28,PH,1723084647
371,vylkove,45.4021,29.586,19.76,74,88,1.0,UA,1723084648
372,itapirapua,-15.8233,-50.6133,21.92,37,0,1.04,BR,1723084649
373,colac,-38.3333,143.5833,13.43,61,100,6.27,AU,1723084650
374,ad dabbah,18.05,30.95,30.35,59,98,4.9,SD,1723084651
375,susuman,62.7833,148.1667,10.7,85,100,0.66,RU,1723084370
376,weno,7.4515,151.8468,32.97,62,75,5.14,FM,1723084653
377,udachny,66.4167,112.4,22.6,47,100,9.12,RU,1723084380
378,port antonio,18.18,-76.4612,29.95,88,100,3.71,JM,1723084656
379,la'ie,21.6477,-157.9253,30.98,74,3,3.58,US,1723084657
380,sejenane,37.0572,9.2381,21.53,65,0,1.41,TN,1723084658
381,puerto aysen,-45.4,-72.7,0.48,96,80,1.39,CL,1723084659
382,bikenibeu village,1.3673,173.1241,30.98,66,75,2.06,KI,1723084660
383,quepos,9.4236,-84.1652,23.92,94,100,2.3,CR,1723084661
384,bossier city,32.516,-93.7321,31.0,69,0,2.06,US,1723084662
385,port-gentil,-0.7193,8.7815,23.35,85,74,5.32,GA,1723084663
386,hameenlinna,60.996,24.4643,15.66,80,87,0.76,FI,1723084665
387,cidreira,-30.1811,-50.2056,15.72,96,100,2.63,BR,1723084666
388,yuzhno-kurilsk,44.0306,145.8556,18.22,99,100,1.65,RU,1723084667
389,pyhajarvi,67.0701,27.2176,10.6,71,6,1.76,FI,1723084668
390,west island,-12.1568,96.8225,27.99,69,20,6.69,CC,1723084669
391,kingston,17.997,-76.7936,29.53,74,20,4.12,JM,1723084110
392,mirnyy,62.5353,113.9611,23.35,39,8,3.78,RU,1723084671
393,sao jose da coroa grande,-8.8978,-35.1478,24.84,71,88,3.57,BR,1723084672
394,alofi,-19.0595,-169.9187,24.94,61,40,7.72,NU,1723084673
395,timimoun,29.2639,0.231,33.21,15,0,7.2,DZ,1723084675
396,ulladulla,-35.35,150.4667,17.65,45,4,5.13,AU,1723084676
397,gharavuti,37.5672,68.4469,24.36,17,0,1.13,TJ,1723084677
398,kalampaka,39.7044,21.6269,21.45,64,7,0.58,GR,1723084678
399,mahenge,-8.6833,36.7167,12.53,70,90,0.35,TZ,1723084679
400,zhangye,38.9342,100.4517,26.5,27,100,12.66,CN,1723084680
401,princeville,45.7668,-61.2985,17.95,87,0,3.6,CA,1723084681
402,zapolyarnyy,69.4154,30.8136,11.6,54,39,2.68,RU,1723084683
403,barra de santo antonio,-9.4047,-35.5072,19.6,78,12,3.7,BR,1723084685
404,nuku'alofa,-21.1333,-175.2,24.19,64,40,7.2,TO,1723084686
405,wamba,8.9333,8.6,21.22,98,92,0.85,NG,1723084687
406,sylhet,24.5,91.6667,27.92,80,92,3.16,BD,1723084438
407,wewak,-3.5534,143.6268,28.58,76,66,3.7,PG,1723084689
408,long beach,33.767,-118.1892,25.06,84,40,4.12,US,1723084156
409,tvoroyri,61.5556,-6.8111,10.9,92,27,7.13,FO,1723084691
410,zaragoza,41.6561,-0.8773,24.45,62,0,6.17,ES,1723084692
411,nevel',56.0209,29.9284,12.34,96,9,1.76,RU,1723084694
412,alakurtti,66.9672,30.3491,9.8,65,3,0.74,RU,1723084695
413,jinchang,38.4953,102.1739,25.33,49,100,3.19,CN,1723084696
414,luganville,-15.5333,167.1667,24.8,66,100,5.83,VU,1723084697
415,bengkulu,-3.8004,102.2655,28.15,67,49,2.04,ID,1723084698
416,port lincoln,-34.7333,135.8667,14.93,82,94,7.81,AU,1723084699
417,campo largo,-25.4586,-49.5283,18.66,61,92,1.5,BR,1723084700
418,lota,-37.0833,-73.1667,5.7,87,0,1.6,CL,1723084701
419,naze,28.3667,129.4833,29.51,66,52,1.57,JP,1723084702
420,kyenjojo,0.6328,30.6214,17.75,64,64,0.36,UG,1723084704
421,covington,39.0837,-84.5086,24.95,79,0,3.6,US,1723084617
422,abalak,58.1286,68.5944,13.0,59,48,3.18,RU,1723084706
423,kuressaare,58.2481,22.5039,13.3,94,2,2.06,EE,1723084707
424,northam,51.0333,-4.2167,15.92,93,27,4.86,GB,1723084708
425,boende,-0.2167,20.8667,22.65,77,45,1.01,CD,1723084709
426,akkol',48.7833,53.2,24.09,63,99,3.69,KZ,1723084710
427,galliano,29.4422,-90.2992,30.0,76,0,4.27,US,1723084711
428,kurlovo,55.4325,40.4854,15.37,85,100,0.58,RU,1723084712
429,birao,10.2849,22.7882,22.19,95,100,1.92,CF,1723084714
430,eltham north,-37.7,145.15,15.92,60,100,2.68,AU,1723084715
431,acarau,-2.8856,-40.12,25.5,85,16,7.45,BR,1723084716
432,pocoes,-14.5297,-40.3653,15.88,98,70,1.66,BR,1723084717
433,riberalta,-10.9833,-66.1,27.55,53,52,0.47,BO,1723084718
434,kvissleby,62.2936,17.375,17.91,96,100,1.89,SE,1723084719
435,ta`u,-14.2336,-169.5144,25.14,77,81,9.7,AS,1723084720
436,aljezur,37.3191,-8.8033,17.09,86,0,4.99,PT,1723084722
437,salinas,36.6777,-121.6555,24.33,94,75,3.09,US,1723084106
438,howrah,22.5892,88.3103,29.0,89,75,3.6,IN,1723084724
439,polyarnyy,69.1989,33.4478,12.88,63,48,4.15,RU,1723084725
440,queenstown,-31.8976,26.8753,9.28,34,0,2.15,ZA,1723084726
441,ciudad lazaro cardenas,17.9583,-102.2,28.11,80,100,3.49,MX,1723084727
442,barakani,-12.1356,44.4317,23.66,76,50,2.36,KM,1723084728
443,bondoukou,8.0333,-2.8,20.68,96,100,3.03,CI,1723084729
444,krutaya gorka,55.3649,73.2231,15.82,87,100,3.54,RU,1723084732
445,nookat,40.2671,72.6207,23.42,23,0,1.06,KG,1723084733
446,usogorsk,63.4106,48.6872,12.82,59,8,2.23,RU,1723084734
447,rubtsovsk,51.5,81.25,20.72,76,100,2.66,RU,1723084735
448,itamaraca,-7.7478,-34.8256,26.03,64,98,4.15,BR,1723084736
449,hammerfest,70.6634,23.6821,19.25,48,6,2.57,NO,1723084737
450,pointe aux piments,-20.0628,57.5131,19.18,80,1,4.53,MU,1723084738
451,rouyn-noranda,48.2398,-79.0288,17.05,67,75,1.54,CA,1723084488
452,rovaniemi,66.5,25.7167,11.67,76,0,4.12,FI,1723084741
453,boguchany,58.3814,97.4531,17.82,92,99,2.3,RU,1723084742
454,loen,7.7601,168.2307,26.69,75,89,0.54,MH,1723084743
455,ceres,37.5949,-120.9577,34.99,26,0,5.85,US,1723084744
456,akjoujt,19.6969,-14.4164,27.52,53,100,4.12,MR,1723084746
457,san jose del cabo,23.0589,-109.6977,30.6,65,20,3.09,MX,1723084699
458,bom jesus do galho,-19.8289,-42.3161,15.33,74,0,1.94,BR,1723084749
459,wotje,9.4543,170.2367,28.14,71,17,2.64,MH,1723084750
460,prince rupert,54.3161,-130.3201,14.05,100,100,4.63,CA,1723084751
461,veraval,20.9,70.3667,27.76,82,91,7.25,IN,1723084752
462,hindaun,26.7167,77.0167,26.27,90,100,2.8,IN,1723084753
463,florence,43.7667,11.25,23.5,73,0,1.54,IT,1723084754
464,gordonvale,-17.0936,145.7842,26.5,81,64,3.11,AU,1723084755
465,guerrero negro,27.9769,-114.0611,23.01,75,0,6.09,MX,1723084756
466,san patricio,28.017,-97.5169,30.94,62,0,5.48,US,1723084758
467,amplepuis,45.9726,4.3316,20.79,80,83,1.06,FR,1723084759
468,strelka,58.0728,93.0344,19.73,80,100,1.91,RU,1723084760
469,agnibilekrou,7.1344,-3.2047,21.06,89,100,2.08,CI,1723084761
470,cabo san lucas,22.8909,-109.9124,30.61,73,0,8.23,MX,1723084762
471,yelizovo,53.1873,158.3805,27.08,47,75,6.0,RU,1723084763
472,san pedro,14.35,121.0167,30.7,82,75,3.6,PH,1723084764
473,sayaxche,16.5167,-90.1667,22.54,98,100,1.23,GT,1723084765
474,vorgashor,67.5833,63.95,11.03,59,26,1.7,RU,1723084767
475,vredendal,-31.6683,18.5012,10.03,94,31,1.85,ZA,1723084768
476,peace river,56.2501,-117.286,23.17,53,0,1.54,CA,1723084769
477,chernomorskoye,45.5039,32.6997,23.28,65,3,2.35,UA,1723084770
478,prince albert,53.2001,-105.7677,15.97,55,75,3.09,CA,1723084771
479,verkhnevilyuysk,63.4453,120.3167,20.41,42,6,1.6,RU,1723084772
480,krasnokamensk,50.0979,118.0369,24.59,39,67,2.11,RU,1723084773
481,mammoth lakes,37.6485,-118.9721,25.4,19,0,5.14,US,1723084774
482,rio grande,-32.035,-52.0986,13.86,89,82,3.11,BR,1723084382
483,fatezh,52.0891,35.8632,14.99,97,79,2.59,RU,1723084777
484,deniliquin,-35.5333,144.9667,15.51,50,100,5.12,AU,1723084778
485,patnos,39.2336,42.8634,17.98,63,0,1.33,TR,1723084779
486,san juan del sur,11.2529,-85.8705,25.31,85,100,5.69,NI,1723084780
487,chadan,51.2833,91.5833,21.28,39,15,1.86,RU,1723084781
488,esquel,-42.9,-71.3167,1.69,83,32,1.92,AR,1723084671
489,mahina,-17.5065,-149.489,27.64,78,75,5.66,PF,1723084783
490,patong,7.8961,98.2966,29.08,73,100,2.11,TH,1723084784
491,bida,9.0833,6.0167,23.04,94,99,1.96,NG,1723084786
492,ulety,51.3572,112.4849,23.03,56,0,2.4,RU,1723084787
493,novodvinsk,64.4165,40.8122,9.86,68,7,1.5,RU,1723084788
494,sandnessjoen,66.0217,12.6316,17.29,78,95,9.05,NO,1723084789
495,sychevka,55.8252,34.2736,12.47,96,38,2.59,RU,1723084790
496,katabu,-4.9333,122.5167,30.62,54,29,4.23,ID,1723084791
497,angaur state,6.906,134.13,28.31,78,100,4.64,PW,1723084792
498,jiaozuo,35.2397,113.2331,28.05,80,93,2.84,CN,1723084694
499,es castell,39.8795,4.2854,25.38,94,0,3.09,ES,1723084794
500,skeldon,5.8833,-57.1333,24.58,91,28,1.52,GY,1723084796
501,quilmana,-12.95,-76.3833,15.98,85,33,2.85,PE,1723084797
502,buka,40.8108,69.1986,30.13,20,0,4.56,UZ,1723084798
503,amantea,39.1332,16.0746,28.03,73,0,2.8,IT,1723084800
504,two rivers,44.1539,-87.5693,19.07,79,0,0.0,US,1723084801
505,qarqaraly,49.4058,75.4742,22.94,44,95,3.49,KZ,1723084803
506,ghat,24.9647,10.1728,29.8,15,4,1.57,LY,1723084805
507,tocopilla,-22.092,-70.1979,16.35,69,1,4.57,CL,1723084586
508,uttarkashi,30.7333,78.45,19.62,91,99,0.88,IN,1723084807
509,tarauaca,-8.1614,-70.7656,26.38,66,92,0.29,BR,1723084808
510,chinde,26.8212,87.7095,26.36,82,99,1.01,NP,1723084809
511,timbuktu,16.7735,-3.0074,30.18,61,100,10.22,ML,1723084810
512,mar del plata,-38.0023,-57.5575,9.49,91,100,10.28,AR,1723084513
513,great falls,47.5002,-111.3008,16.66,79,75,2.57,US,1723084812
514,sinop,41.7711,34.8709,15.44,90,0,1.26,TR,1723084814
515,lazaro cardenas,17.9583,-102.2,28.11,80,100,3.49,MX,1723084727
516,robore,-18.3333,-59.75,19.06,92,95,1.54,BO,1723084817
517,osa,57.2829,55.4567,15.24,87,100,4.43,RU,1723084818
518,cill airne,52.05,-9.5167,14.95,98,100,1.53,IE,1723084781
519,kukawa,12.9234,13.5606,24.4,86,100,4.95,NG,1723084820
520,camabatela,-8.1881,15.375,14.0,93,81,1.79,AO,1723084822
521,torrevieja,37.9787,-0.6822,27.12,71,1,3.11,ES,1723084594
522,gizo,-8.103,156.8419,27.58,79,98,6.06,SB,1723084824
523,saint-joseph,-21.3667,55.6167,18.21,77,11,3.15,RE,1723084825
524,morehead city,34.7229,-76.726,29.0,87,40,6.69,US,1723084573
525,karachi,24.9056,67.0822,28.9,74,75,4.12,PK,1723084827
526,maamba,-17.3667,27.15,15.61,52,0,1.29,ZM,1723084828
527,noyabrsk,63.1994,75.4507,10.76,75,100,5.24,RU,1723084829
528,alaghsas,17.0187,8.0168,27.32,59,46,3.2,NE,1723084830
529,eyl,7.9803,49.8164,24.92,78,88,9.16,SO,1723084832
530,tumut,-35.3,148.2167,15.22,52,43,2.77,AU,1723084833
531,gamba,-2.65,10.0,21.92,89,99,0.8,GA,1723084834
532,saint croix,17.7397,-64.7388,27.25,81,0,2.57,VI,1723084835
533,zeya,53.75,127.2667,23.23,64,95,3.1,RU,1723084836
534,patterson,37.4716,-121.1297,34.99,36,0,1.91,US,1723084837
535,pisco,-13.7,-76.2167,17.03,77,100,0.51,PE,1723084838
536,barcelona,41.3888,2.159,26.48,64,0,3.09,ES,1723084645
537,guelendeng,10.9176,15.5501,23.89,88,100,2.25,TD,1723084841
538,fale old settlement,-9.3852,-171.2468,27.75,73,94,8.74,TK,1723084837
539,jesup,31.6074,-81.8854,26.3,83,40,2.57,US,1723084843
540,borogontsy,62.6683,131.1683,20.97,43,9,1.4,RU,1723084845
541,guymon,36.6828,-101.4816,29.0,39,0,2.06,US,1723084846
542,independence,39.0911,-94.4155,25.16,71,0,2.41,US,1723084847
543,rabigh,22.7986,39.0349,31.14,71,67,1.58,SA,1723084848
544,burutu,5.3509,5.5076,24.7,84,100,3.98,NG,1723084849
545,larache,35.1932,-6.1557,21.24,87,1,3.36,MA,1723084851
546,sarykemer,43.0,71.5,24.71,17,0,0.99,KZ,1723084852
547,stolbovaya,55.2528,37.4853,17.92,97,100,1.84,RU,1723084853
548,koronowo,53.3137,17.937,18.26,90,100,2.11,PL,1723084854
549,chimbote,-9.0853,-78.5783,16.62,87,81,3.19,PE,1723084844
550,thunder bay,48.4001,-89.3168,19.99,68,100,6.69,CA,1723084629
551,tofol,5.3248,163.0078,28.96,71,54,4.24,FM,1723084857
552,vila velha,-20.3297,-40.2925,22.97,88,0,3.09,BR,1723084792
553,rongelap,11.1635,166.8941,28.35,76,100,4.66,MH,1723084859
554,mercedes,-34.6515,-59.4307,8.25,79,48,6.48,AR,1723084861
555,pitanga,-24.7572,-51.7614,15.69,78,77,2.54,BR,1723084862
556,dibrugarh,27.4833,94.9,27.03,94,100,0.0,IN,1723084863
557,humberto de campos,-2.5983,-43.4611,23.88,84,92,1.82,BR,1723084864
558,anna regina,7.2644,-58.5077,26.59,81,3,2.21,GY,1723084865
559,mahibadhoo,3.7833,72.9667,25.92,86,100,8.93,MV,1723084866
560,wanganui,-39.9333,175.05,10.84,73,100,5.69,NZ,1723084868
561,karasu,41.071,30.7854,19.42,87,1,1.2,TR,1723084870
562,deltebre,40.7499,0.7868,24.08,78,5,2.72,ES,1723084661
563,formosa do rio preto,-11.0483,-45.1931,19.55,44,0,0.42,BR,1723084872
564,iranshahr,27.2025,60.6848,31.19,66,100,2.06,IR,1723084873
565,askiz,53.1319,90.5264,19.15,69,100,2.08,RU,1723084875
566,show low,34.2542,-110.0298,22.16,54,75,4.63,US,1723084876
567,bang saphan,11.2126,99.5117,31.44,59,100,1.78,TH,1723084878
568,tangalle,6.024,80.7911,28.09,68,6,5.26,LK,1723084818
569,san rafael,-34.6177,-68.3301,3.2,71,63,2.43,AR,1723084880
570,jayapura,-2.5333,140.7,28.66,66,74,2.73,ID,1723084881
571,gazojak,41.1875,61.4036,34.5,17,2,2.84,TM,1723084882
